Point Name,Latitude,Longitude
Start,38.41013506,-110.789961115
GNSS Point 1,38.41118909,-110.789741165
GNSS Point 2,38.41122777,-110.787629645
AR Marker 1,38.41028011,-110.78751967
AR Marker 2,38.41067658,-110.788729395
AR Marker 3,38.41171127,-110.788773385
Orange Mallet,38.41166292,-110.786441915
Water Bottle,38.41066691,-110.786529895
